City_ID,City,Lat,Lng,Max Temp,Humidity,Cloudiness,Wind Speed,Country,Date
0,udachny,66.4167,112.4,-23.94,100,96,1.91,RU,1705923823
1,samarinda,-0.5,117.15,24.37,97,82,1.15,ID,1705923823
2,longyearbyen,78.2186,15.6401,-9.09,67,20,11.32,SJ,1705923603
3,yellowknife,62.456,-114.3525,-34.77,90,20,0.0,CA,1705923824
4,edinburgh of the seven seas,-37.0676,-12.3116,19.17,87,71,9.75,SH,1705923554
5,makoua,0.0069,15.6333,38.31,25,24,1.74,CG,1705923824
6,albany,42.6001,-73.9662,-8.69,86,9,0.45,US,1705923825
7,shache,38.4167,77.2406,-1.84,40,92,2.65,CN,1705923825
8,bredasdorp,-34.5322,20.0403,19.06,70,100,7.87,ZA,1705923825
9,college,64.8569,-147.8028,-36.01,51,0,1.54,US,1705923825
10,zamora,-4.0692,-78.9567,23.58,100,100,0.45,EC,1705923682
11,ust-nera,64.5667,143.2,-40.32,97,94,2.6,RU,1705923826
12,waitangi,-43.9535,-176.5597,17.68,96,100,6.26,NZ,1705923826
13,axim,4.8699,-2.2405,31.43,63,15,3.26,GH,1705923826
14,tura,25.5198,90.2201,14.88,60,49,1.28,IN,1705923826
15,grytviken,-54.2811,-36.5092,2.93,98,100,2.45,GS,1705923827
16,port-aux-francais,-49.35,70.2167,6.34,81,93,11.78,TF,1705923827
17,talnakh,69.4865,88.3972,-10.44,94,100,9.14,RU,1705923827
18,porto novo,6.4965,2.6036,32.9,31,31,1.96,BJ,1705923828
19,kodiak,57.79,-152.4072,-3.27,80,100,10.29,US,1705923828
20,nizhnesortymskiy,62.4397,71.7603,-6.89,88,100,10.76,RU,1705923828
21,puerto natales,-51.7236,-72.4875,18.25,55,75,6.17,CL,1705923582
22,la'ie,21.6477,-157.9253,25.98,86,32,3.3,US,1705923828
23,gadzhiyevo,69.2551,33.3362,-8.02,93,100,5.81,RU,1705923829
24,salair,54.2312,85.7972,-19.39,95,5,0.75,RU,1705923829
25,adamstown,-25.066,-130.1015,24.32,81,100,3.91,PN,1705923829
26,toamasina,-18.1667,49.3833,31.0,70,20,4.12,MG,1705923829
27,polyarnyy,69.1989,33.4478,-6.99,92,100,6.3,RU,1705923829
28,san luis,-33.295,-66.3356,24.09,46,23,1.9,AR,1705923830
29,bandarbeyla,9.4942,50.8122,26.04,63,20,11.45,SO,1705923830
30,qaqortoq,60.7167,-46.0333,-12.73,74,95,3.39,GL,1705923830
31,afaahiti,-17.75,-149.2833,24.93,80,84,8.28,PF,1705923830
32,bethel,41.3712,-73.414,-5.28,78,0,0.45,US,1705923830
33,puerto ayora,-0.7393,-90.3518,25.31,99,47,1.34,EC,1705923831
34,blackmans bay,-43.0167,147.3167,12.07,66,55,0.84,AU,1705923831
35,tiksi,71.6872,128.8694,-27.57,92,100,11.14,RU,1705923831
36,dange,12.8513,5.3471,32.81,6,68,6.61,NG,1705923831
37,jinghong,21.991,100.7341,17.89,47,7,1.41,CN,1705923831
38,sao joao da barra,-21.6403,-41.0511,27.05,78,4,7.6,BR,1705923832
39,okha,53.5739,142.9478,-29.63,96,45,0.59,RU,1705923832
40,saint-joseph,-21.3667,55.6167,29.21,75,99,3.98,RE,1705923832
41,harstad,68.799,16.5293,-0.34,73,100,10.73,NO,1705923832
42,san julian,21.0167,-102.1667,11.13,70,57,1.0,MX,1705923832
43,aldan,58.6031,125.3894,-14.33,95,100,5.08,RU,1705923833
44,siraha,26.6541,86.2087,16.62,38,0,2.44,NP,1705923833
45,jamestown,42.097,-79.2353,-7.94,93,0,4.12,US,1705923833
46,andorra,42.5,1.5,14.0,60,0,1.03,AD,1705923833
47,vilyuchinsk,52.9306,158.4028,-7.85,90,51,2.71,RU,1705923834
48,rathdrum,47.8137,-116.892,2.48,97,100,4.63,US,1705923834
49,merizo village,13.2658,144.6691,24.85,92,96,8.45,GU,1705923834
50,arkhara,49.4212,130.0842,-32.35,98,31,2.24,RU,1705923834
51,morki,56.4303,48.9947,-16.66,95,52,2.7,RU,1705923834
52,nagqu,31.5,92.0,-13.05,70,10,2.02,CN,1705923835
53,margaret river,-33.95,115.0667,18.23,70,1,4.38,AU,1705923835
54,kangding,30.0513,101.9603,-0.23,50,87,1.95,CN,1705923835
55,ilulissat,69.2167,-51.1,-10.99,67,75,7.72,GL,1705923835
56,rio grande,-32.035,-52.0986,25.06,58,98,6.53,BR,1705923836
57,khovd,48.0056,91.6419,-20.81,97,9,0.33,MN,1705923716
58,hermanus,-34.4187,19.2345,19.02,76,100,8.6,ZA,1705923690
59,hawaiian paradise park,19.5933,-154.9731,22.24,94,75,1.54,US,1705923836
60,wailua homesteads,22.0669,-159.378,22.24,87,20,4.12,US,1705923837
61,masterton,-40.9597,175.6575,18.82,99,91,1.5,NZ,1705923837
62,chonchi,-42.6128,-73.8092,16.73,76,7,2.48,CL,1705923837
63,aasiaat,68.7098,-52.8699,-15.35,96,100,4.27,GL,1705923837
64,caldwell,43.6629,-116.6874,4.91,90,100,4.12,US,1705923837
65,kerikeri,-35.2268,173.9474,19.95,88,36,1.86,NZ,1705923838
66,paso de los toros,-32.8167,-56.5167,20.66,63,0,5.27,UY,1705923643
67,suzemka,52.3178,34.0689,-7.39,90,100,4.45,RU,1705923838
68,avarua,-21.2078,-159.775,25.03,83,75,2.57,CK,1705923561
69,kristiansund,63.1115,7.732,8.36,49,75,4.63,NO,1705923838
70,lebu,-37.6167,-73.65,15.19,74,2,5.46,CL,1705923838
71,kavaratti,10.5669,72.642,28.43,69,77,3.88,IN,1705923839
72,thompson,55.7435,-97.8558,-24.91,77,0,3.6,CA,1705923625
73,punta arenas,-53.15,-70.9167,15.01,72,0,14.92,CL,1705923839
74,saipan,15.1355,145.701,25.39,69,100,3.6,MP,1705923839
75,st. john's,47.5649,-52.7093,-1.13,78,75,10.29,CA,1705923686
76,tirebolu,41.0069,38.8139,5.98,65,99,3.27,TR,1705923840
77,vadso,70.0744,29.7487,-4.91,86,75,4.12,NO,1705923840
78,ilhabela,-23.7781,-45.3581,25.61,76,26,1.86,BR,1705923840
79,ambon,-3.6954,128.1814,28.08,78,40,0.51,ID,1705923840
80,chapada dos guimaraes,-15.4606,-55.7497,21.81,67,59,2.45,BR,1705923841
81,invercargill,-46.4,168.35,14.45,93,100,5.36,NZ,1705923640
82,balezino,57.9796,53.0106,-18.73,96,20,2.99,RU,1705923841
83,xilin hot,43.9667,116.0333,-26.37,93,20,2.19,CN,1705923738
84,kingston,17.997,-76.7936,26.23,78,20,1.54,JM,1705923641
85,kourou,5.1552,-52.6478,28.03,83,51,5.27,GF,1705923833
86,sola,-13.8833,167.55,25.94,88,100,3.61,VU,1705923704
87,iqaluit,63.7506,-68.5145,-21.84,76,40,1.54,CA,1705923842
88,susuman,62.7833,148.1667,-45.01,98,86,1.79,RU,1705923842
89,antsiranana,-12.2787,49.2917,27.42,94,75,6.17,MG,1705923842
90,smithers,54.7804,-127.1743,-1.82,74,100,2.06,CA,1705923612
91,saurimo,-9.6608,20.3916,24.72,67,99,2.09,AO,1705923843
92,nemuro,43.3236,145.575,-0.73,71,100,5.49,JP,1705923843
93,happy valley-goose bay,53.3168,-60.3315,-18.83,65,20,3.09,CA,1705923843
94,hastings,50.8552,0.5729,11.1,77,39,13.15,GB,1705923844
95,papatowai,-46.5619,169.4708,13.71,98,98,1.82,NZ,1705923844
96,vorkuta,67.5,64.0,-12.88,94,100,5.3,RU,1705923609
97,nova vicosa,-17.8919,-39.3719,28.46,69,100,0.46,BR,1705923844
98,taro,-8.3862,115.28,25.0,93,96,1.25,ID,1705923845
99,iwon-up,40.3231,128.6553,-10.26,63,98,5.42,KP,1705923845
100,fada,9.5667,8.3,33.32,7,9,2.62,NG,1705923845
101,turpan,42.9333,89.1667,-1.23,39,100,0.36,CN,1705923845
102,opuwo,-18.0607,13.84,33.79,14,53,2.04,NA,1705923845
103,janauba,-15.8025,-43.3089,26.81,72,52,1.32,BR,1705923653
104,huaraz,-9.5333,-77.5333,14.06,73,86,2.65,PE,1705923846
105,jimenez,28.3333,-105.4,10.65,54,69,2.02,MX,1705923846
106,veraval,20.9,70.3667,25.78,43,74,6.06,IN,1705923846
107,port lincoln,-34.7333,135.8667,20.09,70,1,5.05,AU,1705923710
108,mirny,62.5353,113.9611,-12.09,85,100,4.92,RU,1705923847
109,cambridge,43.3601,-80.3127,-5.34,89,100,3.6,CA,1705923769
110,west island,-12.1568,96.8225,27.99,89,75,2.57,CC,1705923847
111,akrehamn,59.2667,5.1833,8.14,76,100,18.52,NO,1705923847
112,richards bay,-28.783,32.0377,27.91,62,23,4.72,ZA,1705923847
113,kailua-kona,19.6406,-155.9956,23.06,77,100,1.54,US,1705923848
114,rongelap,11.1635,166.8941,26.08,79,75,8.88,MH,1705923848
115,east ballina,-28.8667,153.5833,22.11,78,100,6.32,AU,1705923848
116,salalah,17.0151,54.0924,31.05,11,0,8.23,OM,1705923662
117,isafjordur,66.0755,-23.124,-4.98,74,100,2.06,IS,1705923575
118,mili,6.0815,171.735,27.49,83,33,7.82,MH,1705923849
119,namibe,-15.1961,12.1522,26.84,59,22,5.59,AO,1705923849
120,trinidad,-14.8333,-64.9,25.99,94,75,2.06,BO,1705923849
121,vorgashor,67.5833,63.95,-13.56,94,100,5.25,RU,1705923850
122,puerto ayacucho,5.6639,-67.6236,25.35,60,40,2.85,VE,1705923850
123,bovalino,38.149,16.174,14.94,45,82,0.66,IT,1705923850
124,mondlo,-27.983,30.7177,28.35,38,3,5.33,ZA,1705923850
125,funadhoo,6.15,73.2667,28.2,80,45,6.25,MV,1705923850
126,georgetown,5.4112,100.3354,27.96,77,20,4.12,MY,1705923790
127,chibougamau,49.9168,-74.3659,-7.21,86,100,5.14,CA,1705923830
128,mo i rana,66.3128,14.1428,1.26,88,75,9.26,NO,1705923851
129,lobujya,27.95,86.8167,-13.07,53,12,1.53,NP,1705923851
130,enewetak,11.3474,162.3373,26.36,76,79,8.73,MH,1705923852
131,mojokerto,-7.4664,112.4338,25.84,85,95,0.95,ID,1705923852
132,viedma,-40.8135,-62.9967,28.61,16,10,7.0,AR,1705923852
133,uige,-7.6087,15.0613,28.78,43,32,3.03,AO,1705923852
134,praia da vitoria,38.7333,-27.0667,18.14,88,40,11.05,PT,1705923853
135,ust'-kulom,61.6864,53.6902,-19.96,98,78,2.07,RU,1705923853
136,san jose de jachal,-30.2406,-68.7469,22.3,50,49,1.4,AR,1705923853
137,shizukuishi,39.6833,140.9833,3.06,100,100,1.53,JP,1705923853
138,aykhal,66.0,111.5,-20.54,99,87,3.11,RU,1705923854
139,sanctuary point,-35.1114,150.629,20.18,81,80,3.2,AU,1705923854
140,talara,-4.5772,-81.2719,23.97,83,88,5.19,PE,1705923711
141,midvagur,62.0511,-7.1939,4.46,87,75,2.06,FO,1705923854
142,ushuaia,-54.8,-68.3,11.81,76,20,14.92,AR,1705923851
143,mejit,10.2753,170.8646,26.73,80,100,8.62,MH,1705923755
144,port-gentil,-0.7193,8.7815,27.87,79,15,3.63,GA,1705923855
145,rawatbhata,24.9333,75.5833,20.1,27,14,2.36,IN,1705923855
146,coeur d'alene,47.6777,-116.7805,2.07,97,100,4.63,US,1705923856
147,mezhdurechenskiy,59.6,65.9333,-9.51,87,100,4.93,RU,1705923856
148,mahibadhoo,3.7833,72.9667,28.12,79,63,6.82,MV,1705923806
149,princeville,45.7668,-61.2985,-4.82,88,100,5.14,CA,1705923856
150,labrador city,52.9463,-66.9114,-17.05,78,100,6.69,CA,1705923610
151,alibag,18.6411,72.8792,28.04,60,94,5.07,IN,1705923857
152,sikar,27.6167,75.15,17.33,24,74,1.06,IN,1705923857
153,codrington,-38.2667,141.9667,13.26,75,44,5.39,AU,1705923857
154,olonkinbyen,70.9221,-8.7187,-6.0,81,100,7.75,SJ,1705923857
155,woolgoolga,-30.1106,153.2007,23.91,78,99,6.4,AU,1705923858
156,palmares,-8.6833,-35.5917,31.62,51,12,4.08,BR,1705923858
157,wau,7.7029,27.9953,36.95,9,13,2.4,SS,1705923858
158,villa gesell,-37.2639,-56.973,22.81,62,30,4.28,AR,1705923858
159,portland,45.5234,-122.6762,9.76,94,100,8.23,US,1705923750
160,sulak,43.2734,47.5146,1.74,82,100,5.84,RU,1705923859
161,arawa,-6.2132,155.5367,26.57,93,86,1.75,PG,1705923859
162,eyl,7.9803,49.8164,28.35,51,18,11.93,SO,1705923859
163,jessheim,60.1415,11.1752,4.49,90,75,10.29,NO,1705923860
164,sitka,57.0531,-135.33,3.94,93,100,3.09,US,1705923860
165,luderitz,-26.6481,15.1594,25.41,55,0,12.03,NA,1705923860
166,la mira,18.035,-102.3266,22.24,79,13,2.11,MX,1705923722
167,dom pedrito,-30.9828,-54.6731,20.59,66,26,5.5,BR,1705923860
168,beawar,26.1,74.3167,20.52,21,60,1.83,IN,1705923861
169,tofol,5.3248,163.0078,27.88,81,100,8.54,FM,1705923861
170,tateyama,34.9833,139.8667,12.28,88,100,4.07,JP,1705923861
171,hithadhoo,-0.6,73.0833,29.15,75,64,6.49,MV,1705923567
172,mount gambier,-37.8333,140.7667,13.19,72,41,4.15,AU,1705923861
173,utrik,11.2278,169.8474,26.41,79,72,9.22,MH,1705923862
174,divnomorskoye,44.5011,38.1353,0.1,80,33,8.48,RU,1705923862
175,dwarka,22.2394,68.9678,23.51,50,21,5.24,IN,1705923862
176,thinadhoo,0.5333,72.9333,28.73,75,63,6.61,MV,1705923862
177,sira,13.7453,76.9092,32.24,27,6,1.63,IN,1705923862
178,balqash,46.8481,74.995,-12.67,78,0,3.0,KZ,1705923863
179,la palma,33.8464,-118.0467,15.3,95,100,4.63,US,1705923863
180,constantia,44.1833,28.65,-4.62,70,86,2.43,RO,1705923845
181,chavinda,20.0167,-102.45,12.16,80,80,1.23,MX,1705923863
182,segezha,63.7415,34.3222,-4.65,88,97,7.41,RU,1705923864
183,bereket,39.2446,55.5154,12.31,59,12,7.06,TM,1705923681
184,fairbanks,64.8378,-147.7164,-36.0,54,0,1.54,US,1705923864
185,mpanda,-6.3655,31.0409,21.75,83,96,0.98,TZ,1705923864
186,san patricio,28.017,-97.5169,13.94,98,100,2.33,US,1705923573
187,touros,-5.1989,-35.4608,30.23,65,10,5.02,BR,1705923865
188,basco,20.4487,121.9702,23.06,78,100,12.43,PH,1705923865
189,egilsstadir,65.2653,-14.3948,-5.05,86,100,6.17,IS,1705923866
190,petawawa,45.9001,-77.3328,-5.68,77,100,0.45,CA,1705923866
191,dingcheng,32.1272,115.0394,-2.61,39,100,2.92,CN,1705923866
192,robbah,33.2797,6.9098,12.8,46,100,4.11,DZ,1705923866
193,itamaraca,-7.7478,-34.8256,29.03,66,12,4.49,BR,1705923866
194,petropavlovsk-kamchatsky,53.0452,158.6483,-8.67,77,75,5.0,RU,1705923867
195,borovskoy,53.8,64.15,-9.66,95,100,1.4,KZ,1705923867
196,viana do castelo,41.6932,-8.8329,12.34,90,100,5.2,PT,1705923867
197,cerritos,33.8583,-118.0648,15.27,96,100,4.63,US,1705923690
198,dolores,-36.3132,-57.6792,23.38,53,1,3.3,AR,1705923867
199,coahuayana de hidalgo,18.7,-103.6583,21.98,73,40,1.37,MX,1705923868
200,kirillov,59.863,38.3813,-6.79,86,56,4.99,RU,1705923868
201,selfoss,63.9331,-20.9971,-10.6,83,20,2.71,IS,1705923843
202,severo-yeniseyskiy,60.3725,93.0408,-19.81,93,90,2.27,RU,1705923868
203,mount pearl,47.5166,-52.7813,-1.59,78,75,10.29,CA,1705923572
204,bantay,17.5847,120.3892,28.31,78,16,1.66,PH,1705923869
205,prince rupert,54.3161,-130.3201,4.83,100,100,1.54,CA,1705923869
206,guangyuan,32.442,105.823,3.62,60,78,0.75,CN,1705923869
207,sierra grande,-41.606,-65.3557,25.84,35,0,7.17,AR,1705923869
208,kijang,35.2442,129.2139,-3.15,54,79,7.6,KR,1705923870
209,pitkyaranta,61.5734,31.4792,-4.71,91,100,8.8,RU,1705923870
210,el jadid,33.2549,-8.506,17.61,58,0,6.8,MA,1705923870
211,nar'yan-mar,67.6713,53.087,-24.38,98,17,2.68,RU,1705923870
212,shuangjiang,26.1547,109.7138,-1.55,92,95,2.47,CN,1705923870
213,kuta,-8.7233,115.1723,28.97,79,20,8.23,ID,1705923871
214,aldama,22.9167,-98.0667,16.39,89,100,1.69,MX,1705923871
215,lander,42.833,-108.7307,-3.34,82,0,2.57,US,1705923871
216,alice springs,-23.7,133.8833,33.75,53,91,5.14,AU,1705923871
217,gambiran satu,-8.3939,114.1464,24.76,88,87,2.23,ID,1705923871
218,zahedan,29.4963,60.8629,17.95,17,0,2.06,IR,1705923872
219,carbonear,47.7332,-53.2148,-0.88,83,90,6.93,CA,1705923872
220,bazarak,35.3129,69.5152,5.08,18,100,1.86,AF,1705923872
221,faya-largeau,17.9257,19.1043,29.34,9,17,9.61,TD,1705923872
222,nieuw amsterdam,5.8833,-55.0833,27.01,83,20,0.0,SR,1705923873
223,stanley,54.868,-1.6985,7.62,71,75,11.83,GB,1705923627
224,makokou,0.5738,12.8642,36.28,31,43,0.41,GA,1705923873
225,betio village,1.358,172.9211,30.02,75,79,4.19,KI,1705923873
226,goure,13.9835,10.2704,30.74,7,38,5.61,NE,1705923873
227,kupang,-10.1667,123.5833,29.32,89,40,4.63,ID,1705923874
228,miyang,24.4042,103.4428,3.47,88,99,1.4,CN,1705923874
229,holualoa,19.6228,-155.9522,20.99,77,100,1.54,US,1705923874
230,newtown trim,53.5561,-6.77,8.08,72,36,10.5,IE,1705923874
231,lincolnton,35.4737,-81.2545,-4.99,77,0,1.68,US,1705923875
232,tobelo,1.7284,128.0095,24.22,91,100,2.14,ID,1705923875
233,qamdo,31.1667,97.2333,-9.9,32,11,1.71,CN,1705923875
234,muynoq,43.7683,59.0214,7.65,33,84,0.86,UZ,1705923875
235,preobrazheniye,42.9019,133.9064,-10.62,82,99,6.05,RU,1705923875
236,warman,52.3168,-106.5679,-15.05,84,100,5.66,CA,1705923876
237,kapuskasing,49.4169,-82.4331,-4.0,80,100,6.17,CA,1705923876
238,progreso,21.2833,-89.6667,21.73,81,100,11.19,MX,1705923876
239,douglas,41.3,-96.167,-1.51,83,75,4.12,US,1705923656
240,bilibino,68.0546,166.4372,-21.76,68,100,5.53,RU,1705923877
241,flying fish cove,-10.4217,105.6791,26.82,89,75,3.09,CX,1705923877
242,port elizabeth,-33.918,25.5701,22.4,79,100,5.14,ZA,1705923600
243,hadibu,12.65,54.0333,25.26,64,90,7.46,YE,1705923877
244,cidreira,-30.1811,-50.2056,23.31,59,100,6.38,BR,1705923878
245,gannat,46.1002,3.1989,12.88,84,100,7.97,FR,1705923878
246,tanumah,27.1,44.1333,26.12,25,1,7.19,SA,1705923878
247,sarpol-e zahab,34.4611,45.8626,18.13,34,81,3.35,IR,1705923878
248,sovet,38.0467,69.5882,13.01,20,100,2.23,TJ,1705923879
249,fukuecho,32.6881,128.8419,3.95,76,100,13.32,JP,1705923879
250,pangobilian,8.8011,117.8594,26.72,83,82,4.19,PH,1705923879
251,badger,64.8,-147.5333,-36.05,61,0,1.54,US,1705923879
252,nuku'alofa,-21.1333,-175.2,27.19,94,75,2.57,TO,1705923880
253,hiratacho,35.4333,132.8167,4.01,65,75,7.2,JP,1705923880
254,pandan,14.0453,124.1694,27.47,76,58,6.65,PH,1705923880
255,talcahuano,-36.7167,-73.1167,14.82,88,0,4.12,CL,1705923880
256,whitecourt,54.1502,-115.6855,-17.13,97,100,3.61,CA,1705923881
257,las lomitas,-24.7096,-60.593,22.96,77,85,2.64,AR,1705923881
258,port mathurin,-19.6833,63.4167,28.39,85,64,10.59,MU,1705923603
259,taksimo,56.3444,114.8794,-18.07,91,90,2.14,RU,1705923881
260,el abiodh sidi cheikh,32.893,0.5484,13.27,35,0,3.42,DZ,1705923881
261,ola,59.5833,151.2833,-31.07,98,84,1.77,RU,1705923882
262,buguruslan,53.6554,52.442,-20.19,97,25,1.46,RU,1705923882
263,alaghsas,17.0187,8.0168,29.94,6,66,8.75,NE,1705923882
264,crane,31.3974,-102.3501,6.14,74,100,2.71,US,1705923716
265,tazovsky,67.4667,78.7,-8.28,94,100,7.83,RU,1705923882
266,ribeira grande,38.5167,-28.7,18.22,82,75,10.28,PT,1705923883
267,saint-pierre,-21.3393,55.4781,29.82,74,100,8.23,RE,1705923883
268,sittwe,20.15,92.9,21.49,67,5,8.31,MM,1705923883
269,newman,37.3138,-121.0208,12.79,93,100,2.24,US,1705923853
270,vila velha,-20.3297,-40.2925,26.97,91,75,0.89,BR,1705923883
271,mao,39.8885,4.2658,14.31,67,20,6.69,ES,1705923884
272,cinarli,41.4723,46.9156,1.09,97,100,2.68,AZ,1705923884
273,lemvig,56.5486,8.3102,7.89,87,73,13.33,DK,1705923884
274,papao,-17.75,-149.55,25.82,74,67,8.55,PF,1705923884
275,ancud,-41.8697,-73.8203,15.41,74,0,0.47,CL,1705923884
276,minas de marcona,-15.2119,-75.1103,18.65,88,92,1.63,PE,1705923885
277,songyuan,45.1171,124.8568,-25.06,93,5,1.52,CN,1705923885
278,iskateley,67.6803,53.1512,-24.43,98,13,2.68,RU,1705923885
279,fortuna,40.5982,-124.1573,12.03,96,100,0.45,US,1705923885
280,kimbe,-5.5502,150.1429,26.31,87,100,0.99,PG,1705923886
281,hamilton,39.1834,-84.5333,-5.57,75,75,3.6,US,1705923761
282,pisco,-13.7,-76.2167,22.03,94,100,0.51,PE,1705923851
283,san luis de la loma,17.2706,-100.8939,23.91,66,3,1.47,MX,1705923886
284,shenkursk,62.1091,42.896,-7.25,90,100,4.86,RU,1705923886
285,alofi,-19.0595,-169.9187,24.94,100,95,2.57,NU,1705923760
286,ca mau,9.1769,105.15,26.86,61,16,4.4,VN,1705923887
287,klyuchi,52.2667,79.1667,-17.56,95,5,2.27,RU,1705923887
288,antonio enes,-16.2325,39.9086,28.39,86,100,3.23,MZ,1705923887
289,revelstoke,50.9832,-118.2023,-2.99,100,100,0.0,CA,1705923887
290,yanykurgan,43.915,67.2481,-0.68,58,83,2.14,KZ,1705923888
291,coquimbo,-29.9533,-71.3436,15.85,94,100,1.54,CL,1705923888
292,wewak,-3.5534,143.6268,26.65,85,100,3.23,PG,1705923888
293,benjamin aceval,-24.9667,-57.5667,26.12,67,75,2.29,PY,1705923888
294,sinabang,2.4803,96.3801,27.84,78,33,1.55,ID,1705923644
295,bonthe,7.5264,-12.505,32.12,55,15,2.1,SL,1705923889
296,port macquarie,-31.4333,152.9167,22.72,76,75,4.06,AU,1705923889
297,jayapura,-2.5333,140.7,25.66,93,100,2.67,ID,1705923889
298,vijapur,23.5667,72.75,25.51,19,8,1.61,IN,1705923889
299,kashin,57.3592,37.6081,-6.68,79,13,8.25,RU,1705923890
300,senador jose porfirio,-2.5908,-51.9542,25.93,88,83,1.37,BR,1705923890
301,mana,5.6592,-53.7767,26.59,76,29,5.27,GF,1705923890
302,keflavik,64.0049,-22.5624,-5.05,73,40,6.69,IS,1705923890
303,pontianak,-0.0333,109.3333,27.99,83,40,2.57,ID,1705923890
304,kapshagay,43.8833,77.0833,-7.46,88,23,2.01,KZ,1705923891
305,arraial do cabo,-22.9661,-42.0278,24.92,88,75,3.09,BR,1705923891
306,santa ana,33.7456,-117.8678,15.16,92,100,4.12,US,1705923891
307,mar del plata,-38.0023,-57.5575,23.07,74,0,6.26,AR,1705923891
308,beau vallon,-20.4189,57.6953,31.23,74,75,5.66,MU,1705923891
309,sorong,-0.8833,131.25,26.15,81,100,7.83,ID,1705923892
310,kununurra,-15.7667,128.7333,26.99,94,75,2.57,AU,1705923892
311,necochea,-38.5473,-58.7368,24.7,36,39,5.33,AR,1705923892
312,khandyga,62.6667,135.6,-28.02,99,100,1.59,RU,1705923892
313,norilsk,69.3535,88.2027,-10.32,92,100,7.37,RU,1705923892
314,anadyr,64.75,177.4833,-18.72,84,0,3.0,RU,1705923893
315,mindelheim,48.05,10.4833,10.34,55,0,10.8,DE,1705923893
316,araguaina,-7.1911,-48.2072,30.3,59,100,3.0,BR,1705923893
317,bamboo flat,11.7,92.7167,27.05,61,20,3.6,IN,1705923893
318,tual,-5.6667,132.75,27.93,78,100,7.04,ID,1705923717
319,gorom-gorom,14.4439,-0.2361,33.0,6,26,6.49,BF,1705923894
320,laguna,38.421,-121.4238,13.32,91,100,8.75,US,1705923894
321,uturoa,-16.7333,-151.4333,27.28,79,72,5.44,PF,1705923894
322,ketchikan,55.3422,-131.6461,5.99,93,100,2.06,US,1705923894
323,laojunmiao,39.8333,97.7333,-14.14,42,0,7.2,CN,1705923894
324,ksar el boukhari,35.8889,2.7491,9.84,57,0,2.15,DZ,1705923895
325,tynda,55.1667,124.7167,-19.55,88,100,1.45,RU,1705923895
326,ponta delgada,37.7333,-25.6667,18.44,88,75,5.66,PT,1705923762
327,radomir,42.5444,22.9578,-7.85,72,1,1.07,BG,1705923895
328,hammerfest,70.6634,23.6821,-3.75,74,20,3.6,NO,1705923895
329,nova sintra,14.8667,-24.7167,20.44,78,60,7.92,CV,1705923896
330,severnoye,56.3491,78.3619,-15.01,84,97,4.02,RU,1705923896
331,altai,46.3722,96.2583,-22.75,68,0,0.98,MN,1705923896
332,planaltina,-15.4528,-47.6142,22.78,74,95,0.28,BR,1705923896
333,san antonio de pale,-1.4014,5.6325,27.56,80,14,3.01,GQ,1705923641
334,marica,-22.9194,-42.8186,26.95,81,61,3.92,BR,1705923896
335,riberalta,-10.9833,-66.1,25.11,94,75,2.06,BO,1705923897
336,mount isa,-20.7333,139.5,28.87,70,79,2.57,AU,1705923897
337,zaozersk,69.4005,32.4476,-9.99,95,100,2.75,RU,1705923897
338,guantanamo,20.1444,-75.2092,23.76,79,84,3.76,CU,1705923897
339,kruisfontein,-34.0033,24.7314,19.94,78,99,6.96,ZA,1705923898
340,peace river,56.2501,-117.286,-15.19,89,100,3.09,CA,1705923898
341,maslyanino,54.3436,84.2111,-18.49,97,3,0.64,RU,1705923898
342,bridgewater,44.3835,-64.5155,-8.18,86,6,3.6,CA,1705923808
343,barra,-11.0894,-43.1417,28.61,62,83,1.61,BR,1705923898
344,fort mcmurray,56.7268,-111.381,-21.23,77,75,2.57,CA,1705923899
345,williams lake,52.1415,-122.1445,-1.24,100,100,0.0,CA,1705923818
346,bovalino superiore,38.1833,16.1667,14.37,45,79,2.07,IT,1705923899
347,shizuishan,39.2333,106.7694,-13.23,62,97,1.26,CN,1705923899
348,kodinsk,58.6881,99.1844,-20.5,100,61,1.68,RU,1705923899
349,pimenta bueno,-11.6725,-61.1936,25.48,89,17,1.6,BR,1705923900
350,rocha,-34.4833,-54.3333,21.9,53,3,3.36,UY,1705923900
351,saint-philippe,-21.3585,55.7679,29.77,71,95,3.58,RE,1705923900
352,hilo,19.7297,-155.09,22.36,82,75,2.68,US,1705923733
353,pinoso,38.4016,-1.042,14.05,63,21,2.68,ES,1705923900
354,saudarkrokur,65.7461,-19.6394,-8.82,88,100,1.95,IS,1705923901
355,ulladulla,-35.35,150.4667,18.76,98,93,0.95,AU,1705923901
356,bayanhongor,46.7167,100.1167,-27.7,83,1,2.23,MN,1705923901
357,saldanha,-33.0117,17.9442,31.03,83,76,13.28,ZA,1705923902
358,whitehorse,60.7161,-135.0538,-21.5,73,100,2.57,CA,1705923902
359,extrema,-22.8547,-46.3183,20.9,77,66,1.93,BR,1705923903
360,archangelos,36.2149,28.1149,15.73,70,70,2.21,GR,1705923903
361,adigrat,14.277,39.462,19.9,35,99,1.36,ET,1705923904
362,ha'il,27.5219,41.6907,25.01,41,0,8.23,SA,1705923664
363,antalaha,-14.9003,50.2788,28.55,71,100,2.3,MG,1705923904
364,parauapebas,-6.0675,-49.9022,26.99,88,0,0.51,BR,1705923904
365,zavetnoye,47.1194,43.8903,-4.09,63,2,3.81,RU,1705923904
366,kongsberg,59.6652,9.6465,6.22,91,100,5.81,NO,1705923905
367,la passe,45.5549,-0.8967,11.13,93,100,8.29,FR,1705923606
368,funafuti,-8.5243,179.1942,30.0,79,40,2.06,TV,1705923905
369,lerwick,60.1545,-1.1494,7.0,81,77,16.15,GB,1705923906
370,tughyl,47.7252,84.2063,-20.46,92,21,1.06,KZ,1705923906
371,atafu village,-8.5421,-172.5159,29.44,73,84,3.88,TK,1705923906
372,dingwall,57.5953,-4.4272,7.26,90,38,10.91,GB,1705923907
373,sinjar,36.3209,41.8754,13.97,59,100,6.99,IQ,1705923907
374,ad dilam,23.9915,47.1627,25.23,22,0,4.74,SA,1705923907
375,lompoc,34.6391,-120.4579,14.08,87,100,7.6,US,1705923907
376,serdobsk,52.4586,44.2169,-13.69,93,24,1.82,RU,1705923908
377,luanda,-8.8368,13.2343,30.0,69,20,5.66,AO,1705923908
378,dudinka,69.4058,86.1778,-10.18,95,100,4.02,RU,1705923684
379,mahanje,-9.9333,35.3333,21.17,95,100,0.99,TZ,1705923908
380,dunedin,-45.8742,170.5036,16.56,96,89,0.45,NZ,1705923828
381,concordia,-31.393,-58.0209,21.31,62,1,4.57,AR,1705923739
382,kamennomostskiy,44.2983,40.1856,-4.27,79,95,3.47,RU,1705923909
383,nikolayevsk-on-amure,53.1406,140.73,-29.21,100,15,0.53,RU,1705923909
384,skelleftea,64.7507,20.9528,0.56,100,100,7.2,SE,1705923910
385,derzhavinsk,51.1,66.3167,-7.55,83,100,3.2,KZ,1705923910
386,lorengau,-2.0226,147.2712,27.74,82,100,3.96,PG,1705923910
387,bandar-e lengeh,26.5579,54.8807,25.06,57,0,4.12,IR,1705923911
388,voi,-3.3945,38.563,29.29,56,87,4.24,KE,1705923911
389,rundu,-17.9333,19.7667,31.59,25,64,2.99,NA,1705923911
390,namdrik,5.5994,168.1028,27.64,83,8,9.13,MH,1705923912
391,bikenibeu village,1.3673,173.1241,29.98,74,40,2.57,KI,1705923912
392,srandakan,-7.9386,110.2506,25.79,88,96,3.57,ID,1705923912
393,le grau-du-roi,43.5388,4.1356,11.99,67,40,3.6,FR,1705923913
394,new iberia,30.0035,-91.8187,8.99,71,100,4.63,US,1705923913
395,ghat,24.9647,10.1728,19.57,22,0,2.83,LY,1705923913
396,eraan,9.0629,117.7016,26.53,83,80,2.45,PH,1705923914
397,chela,34.069,104.4619,-8.59,89,86,1.5,CN,1705923914
398,tolanaro,-25.0319,46.9987,30.04,70,20,8.23,MG,1705923914
399,ushtobe,45.2514,77.9838,-9.78,93,11,4.82,KZ,1705923915
400,sainte-anne-des-monts,49.124,-66.4924,-10.07,73,90,5.14,CA,1705923915
401,pacific grove,36.6177,-121.9166,14.06,90,100,3.09,US,1705923742
402,vanimo,-2.6741,141.3028,27.47,83,100,7.64,PG,1705923916
403,ust'-ilimsk,58.0006,102.6619,-14.2,86,94,3.58,RU,1705923917
404,kudahuvadhoo,2.6708,72.8944,28.03,80,40,7.01,MV,1705923917
405,arkhangel'sk,64.5401,40.5433,-7.94,92,75,2.0,RU,1705923917
406,zyrya,40.3661,50.2917,4.05,74,100,15.7,AZ,1705923917
407,nenjiang,49.1833,125.2167,-28.46,97,35,0.29,CN,1705923917
408,quellon,-43.1167,-73.6167,16.48,76,21,3.34,CL,1705923918
409,lata,40.1629,-8.3327,13.37,73,93,1.01,PT,1705923918
410,barra de santo antonio,-9.4047,-35.5072,29.6,51,23,5.0,BR,1705923918
411,aoulef,26.9667,1.0833,20.67,31,0,8.61,DZ,1705923918
412,nizhniy odes,63.6445,54.856,-22.47,99,50,2.34,RU,1705923919
413,hirapur hamesha,21.5333,79.7667,24.73,35,49,1.26,IN,1705923919
414,dolinsk,47.35,142.8,-16.82,94,100,4.88,RU,1705923919
415,fisterra,42.9049,-9.2629,16.53,98,100,7.83,ES,1705923919
416,greymouth,-42.4667,171.2,18.91,86,53,9.22,NZ,1705923920
417,inhambane,-23.865,35.3833,31.99,62,40,7.72,MZ,1705923920
418,poltavka,54.3663,71.7632,-9.74,88,100,3.36,RU,1705923920
419,ta`u,-14.2336,-169.5144,28.69,71,80,4.01,AS,1705923920
420,kabompo,-13.5927,24.2008,28.97,51,66,1.26,ZM,1705923921
421,peterhead,57.5058,-1.7981,7.22,69,23,13.4,GB,1705923921
422,naze,28.3667,129.4833,12.51,76,100,13.49,JP,1705923921
423,kismayo,-0.3582,42.5454,28.76,64,17,8.67,SO,1705923770
424,boende,-0.2167,20.8667,40.71,13,31,1.23,CD,1705923921
425,tralee,52.2704,-9.7026,9.14,66,75,9.77,IE,1705923842
426,fernie,49.5,-115.0687,-3.89,100,100,0.83,CA,1705923922
427,guatire,10.4762,-66.5427,25.38,91,79,1.37,VE,1705923922
428,cutral-co,-38.9469,-69.2089,24.95,10,0,5.39,AR,1705923922
429,masina,-4.3836,15.3914,31.16,55,40,5.14,CD,1705923923
430,angaur state,6.906,134.13,28.02,76,70,8.78,PW,1705923923
431,najran,17.4924,44.1277,25.36,21,20,4.35,SA,1705923923
432,campbellton,48.0075,-66.6727,-13.75,93,48,2.45,CA,1705923923
433,fecamp,49.7579,0.3746,11.84,79,100,11.5,FR,1705923924
434,barra do corda,-5.5,-45.25,28.31,75,78,2.18,BR,1705923924
435,al jawf,29.5,38.75,23.31,18,0,4.71,SA,1705923924
436,esbjerg,55.4667,8.45,8.27,81,55,12.86,DK,1705923924
437,fort bragg,35.139,-79.006,-3.99,83,0,0.0,US,1705923925
438,marianna,30.7744,-85.2269,1.38,51,0,3.09,US,1705923925
439,pacocha,-17.5833,-71.3333,23.07,85,45,1.86,PE,1705923925
440,duyun,26.2667,107.5167,-3.85,93,97,2.73,CN,1705923925
441,yahyali,38.1023,35.357,2.1,84,98,2.53,TR,1705923926
442,homestead meadows north,31.8496,-106.1729,11.64,69,20,3.6,US,1705923926
443,eppelborn,49.4,6.9667,7.93,88,100,4.92,DE,1705923926
444,nadym,65.5333,72.5167,-7.54,94,100,8.45,RU,1705923926
445,fish town,5.1964,-7.8756,33.65,47,48,1.13,LR,1705923926
446,mugumu,-1.85,34.7,21.16,78,82,1.64,TZ,1705923927
447,bel ombre,-4.6167,55.4167,29.91,66,20,3.6,SC,1705923927
448,acarau,-2.8856,-40.12,28.03,75,56,5.26,BR,1705923927
449,kotido,2.9806,34.1331,26.97,38,85,6.05,UG,1705923927
450,remire-montjoly,4.9167,-52.2667,28.02,78,0,6.17,GF,1705923804
451,camacupa,-12.0167,17.4833,24.15,68,61,1.34,AO,1705923928
452,kapa'a,22.0752,-159.319,22.99,87,20,4.12,US,1705923661
453,samana,19.2056,-69.3369,23.98,80,28,5.08,DO,1705923928
454,arzgir,45.3728,44.2206,-0.67,45,100,4.36,RU,1705923928
455,idabel,33.8957,-94.8263,2.11,72,100,5.14,US,1705923929
456,irymple,-34.25,142.1667,23.38,35,0,3.88,AU,1705923929
457,kirakira,-10.4544,161.9205,26.94,84,99,1.27,SB,1705923929
458,evergreen,39.6333,-105.3172,1.32,71,82,0.45,US,1705923929
459,cartagena del chaira,1.3349,-74.8429,22.65,97,94,0.13,CO,1705923930
460,rhinelander,45.6366,-89.4121,-8.91,67,0,4.12,US,1705923639
461,tamanrasset,22.785,5.5228,23.95,5,0,1.03,DZ,1705923930
462,shangzhi,45.2167,127.9667,-28.41,99,62,1.4,CN,1705923930
463,cambria,35.5641,-121.0808,14.41,98,100,2.24,US,1705923931
464,nueva gerona,21.8833,-82.8,22.53,76,100,9.69,CU,1705923738
465,bulungu,-4.55,18.6,33.18,45,64,1.68,CD,1705923931
466,as sulayyil,20.4607,45.5779,27.14,19,1,5.49,SA,1705923931
467,elliot lake,46.3834,-82.6331,-6.34,93,100,5.14,CA,1705923932
468,vernon,50.2581,-119.2691,0.68,91,100,0.51,CA,1705923932
469,broome,42.2506,-75.833,-8.78,86,0,3.09,US,1705923932
470,taulaga,-11.0553,-171.0883,29.29,70,31,2.69,AS,1705923933
471,tocache,-8.1842,-76.5125,22.24,94,78,0.56,PE,1705923933
472,kavieng,-2.5744,150.7967,27.95,79,93,1.75,PG,1705923774
473,talakan,50.3167,130.3667,-32.26,100,7,0.79,RU,1705923933
474,lihue,21.9789,-159.3672,22.58,87,20,4.12,US,1705923643
475,shakawe,-18.3667,21.85,30.76,33,14,3.43,BW,1705923934
476,bosaso,11.2842,49.1816,26.99,74,0,5.66,SO,1705923934
477,as-suwayda,32.709,36.5695,17.38,23,7,4.45,SY,1705923934
478,astrakhan,46.3497,48.0408,-5.05,57,0,5.0,RU,1705923934
479,fort st. john,56.2499,-120.8529,-18.06,78,100,6.69,CA,1705923800
480,new norfolk,-42.7826,147.0587,12.72,70,32,0.44,AU,1705923935
481,dryden,49.7833,-92.7503,-9.84,85,100,2.06,CA,1705923842
482,kone,-21.0595,164.8658,26.01,86,100,0.93,NC,1705923935
483,sisimiut,66.9395,-53.6735,-8.75,80,100,9.3,GL,1705923935
484,tazacorte,28.629,-17.9293,19.54,75,75,7.15,ES,1705923936
485,argo,37.6333,22.7333,9.32,50,68,8.19,GR,1705923936
486,kayangel,8.0823,134.7173,27.79,74,100,9.18,PW,1705923936
487,dodge city,37.7528,-100.0171,2.14,93,75,6.17,US,1705923936
488,illizi,26.4833,8.4667,17.89,23,4,5.67,DZ,1705923937
489,rawson,-43.3002,-65.1023,26.19,36,2,5.7,AR,1705923937
490,keene,42.9337,-72.2781,-8.24,77,14,0.64,US,1705923937
491,hereford,52.0568,-2.7148,10.74,73,43,7.15,GB,1705923829
492,antofagasta,-23.65,-70.4,19.6,75,69,1.61,CL,1705923937
493,fortaleza,-3.7227,-38.5247,30.6,87,75,3.6,BR,1705923938
494,alvorada,-12.48,-49.1247,26.91,70,99,0.95,BR,1705923938
495,inarajan village,13.2736,144.7484,25.08,92,98,8.77,GU,1705923938
496,okhotsk,59.3833,143.3,-37.07,88,9,3.18,RU,1705923938
497,zouerate,22.7187,-12.4521,26.08,8,100,6.52,MR,1705923939
498,kingscliff,-28.2667,153.5667,25.41,83,75,6.17,AU,1705923939
499,port blair,11.6667,92.75,27.02,61,20,3.6,IN,1705923939
500,konarka,19.9,86.1167,23.22,81,99,5.74,IN,1705923939
501,tierp,60.3427,17.5181,1.9,94,100,7.4,SE,1705923940
502,palikir - national government center,6.9248,158.1611,27.41,83,100,4.12,FM,1705923940
503,huilong,31.8111,121.655,-1.18,69,100,8.25,CN,1705923940
504,trondheim,63.4305,10.3951,6.05,70,100,4.02,NO,1705923896
505,massenya,11.4039,16.1705,33.0,6,0,2.13,TD,1705923941
506,corlette,-32.7201,152.1085,23.77,70,73,4.02,AU,1705923941
507,banda aceh,5.5577,95.3222,27.33,77,15,6.89,ID,1705923941
508,yemetsk,63.4721,41.7941,-6.38,94,100,4.08,RU,1705923941
509,shasta lake,40.6804,-122.3708,12.4,94,100,0.75,US,1705923941
510,cabo san lucas,22.8909,-109.9124,19.73,80,100,3.58,MX,1705923473
511,musoma,-1.5,33.8,23.36,63,96,3.18,TZ,1705923942
512,gubkinskiy,64.434,76.5026,-6.81,91,100,12.06,RU,1705923942
513,carnarvon,-24.8667,113.6333,23.12,82,72,15.13,AU,1705923942
514,kaa-khem,51.6833,94.7333,-29.77,99,59,0.55,RU,1705923943
515,brandon,27.9378,-82.2859,10.49,91,0,4.63,US,1705923943
516,maluso,6.543,121.8753,26.5,82,94,1.12,PH,1705923943
517,ulverstone,-41.15,146.1667,17.07,75,86,5.12,AU,1705923943
518,katsuura,35.1333,140.3,12.03,85,100,3.03,JP,1705923944
519,sheridan,44.8333,-106.9173,3.51,86,100,1.54,US,1705923944
520,kochubey,44.3861,46.5825,-0.84,61,100,4.05,RU,1705923944
521,shumikha,55.2261,63.2961,-7.42,90,100,2.98,RU,1705923944
522,usman',52.0466,39.7288,-7.17,90,78,2.24,RU,1705923945
523,savelugu,9.6244,-0.8253,36.88,4,7,3.91,GH,1705923945
524,namsos,64.4662,11.4957,5.03,75,0,5.14,NO,1705923945
525,sao felix do xingu,-6.6447,-51.995,25.04,94,91,0.47,BR,1705923945
526,durcal,36.9879,-3.566,12.09,71,0,1.03,ES,1705923945
527,pueblo nuevo,23.3833,-105.3833,7.32,60,81,2.12,MX,1705923946
528,sao jose da coroa grande,-8.8978,-35.1478,29.92,63,85,5.71,BR,1705923698
529,sampit,-2.5333,112.95,24.85,93,100,1.24,ID,1705923946
530,brisas de zicatela,15.8369,-97.0419,24.4,63,28,1.89,MX,1705923946
531,inirida,3.8653,-67.9239,26.26,72,78,0.73,CO,1705923947
532,doaba,33.4244,70.7364,13.6,26,85,2.34,PK,1705923947
533,hakui,36.8833,136.7833,9.56,96,100,8.35,JP,1705923947
534,la sarre,48.8002,-79.1996,-5.5,89,100,5.61,CA,1705923948
535,zheleznodorozhnyy,55.7503,38.0042,-5.71,93,47,4.02,RU,1705923948
536,gisborne,-38.6533,178.0042,18.81,94,97,2.06,NZ,1705923948
537,cuprija,43.9275,21.37,2.49,61,12,4.92,RS,1705923948
538,arrifes,37.7667,-25.7,17.18,88,75,5.66,PT,1705923948
539,pavlodar,52.3,76.95,-19.11,84,0,4.0,KZ,1705923949
540,klaksvik,62.2266,-6.589,4.51,97,100,7.44,FO,1705923949
541,kigoma,-4.8769,29.6267,25.08,72,89,2.18,TZ,1705923949
542,camarinas,43.1311,-9.1817,16.63,98,100,7.1,ES,1705923949
543,port alfred,-33.5906,26.891,24.54,77,72,3.58,ZA,1705923950
544,caluula,11.9661,50.7569,25.51,62,11,6.76,SO,1705923950
545,mogadishu,2.0371,45.3438,30.93,74,40,7.72,SO,1705923950
546,dauphin,51.1494,-100.0502,-12.92,85,100,5.14,CA,1705923950
547,tsiombe,-25.3,45.4833,31.32,57,89,5.73,MG,1705923950
548,dombarovskiy,50.7587,59.5386,-8.89,87,100,0.89,RU,1705923951
549,gurghiu,46.7667,24.85,0.25,49,3,1.21,RO,1705923951
550,valparaiso,-33.0393,-71.6273,19.39,94,100,1.03,CL,1705923951
551,khilok,51.3674,110.4676,-21.5,95,40,1.9,RU,1705923951
552,kolonia,50.9333,6.95,12.25,76,20,7.72,DE,1705923951
553,pangai,-19.8,-174.35,27.15,86,95,3.59,TO,1705923952
554,lazaro cardenas,17.9583,-102.2,22.54,81,23,1.8,MX,1705923729
555,altusried,47.8,10.2167,8.48,64,100,7.5,DE,1705923952
556,kaoma,-14.7833,24.8,25.93,69,56,1.7,ZM,1705923953
557,tikapur,28.5,81.1333,15.72,26,74,2.31,NP,1705923953
558,soure,-0.7167,-48.5233,28.08,80,8,4.57,BR,1705923953
559,gazojak,41.1875,61.4036,8.86,31,100,1.94,TM,1705923953
